[
	{
		"title": "International Organization of Migration (CTDC)",
		"url": "https://www.ctdatacollaborative.org/",
		"city": "",
		"country": "",
		"region": "Multinational",
		"lat": -16.489758,
		"lng": -68.119273
	},
	{
		"title": "The Asian Development Bank",
		"url": "https://data.adb.org/",
		"city": "",
		"country": "",
		"region": "Multinational",
		"lat": 14.58851,
		"lng": 121.05952
	},
	{
		"title": "United Nations (Open Data System Inventory)",
		"url": "http://data.un.org/",
		"city": "",
		"country": "",
		"region": "Multinational",
		"lat": 40.749103,
		"lng": -73.968031
	},
	{
		"title": "The World Bank",
		"url": "http://climatesmartplanning.org/",
		"city": "",
		"country": "",
		"region": "Multinational",
		"lat": 38.901299,
		"lng": -77.042656
	},
	{
		"title": "Votes Without Violence",
		"url": "https://www.voteswithoutviolence.org",
		"city": "",
		"country": "USA",
		"region": "Multinational",
		"lat": 38.901048,
		"lng": -77.017576
	},
	{
		"title": "U.S. Department of Health and Human Services (USA)",
		"url": "https://healthdata.gov",
		"city": "",
		"country": "USA",
		"region": "United States of America",
		"lat": 38.901048,
		"lng": -77.017576
	},
	{
		"title": "USDA National Agricultural Library",
		"url": "http://data.nal.usda.gov",
		"city": "Washington",
		"country": "USA",
		"region": "United States of America",
		"lat": 39.022775,
		"lng": -76.921752
	},
	{
		"title": "Rhode Island",
		"url": "https://data.ri.gov",
		"city": "",
		"country": "USA",
		"region": "United States of America",
		"lat": 41.823917,
		"lng": -71.417973
	},
	{
		"title": "Oklahoma",
		"url": "http://data.ok.gov",
		"city": "",
		"country": "USA",
		"region": "United States of America",
		"lat": 35.492106,
		"lng": -97.503317
	},
	{
		"title": "North Dakota",
		"url": "https://gishubdata.nd.gov/",
		"city": "",
		"country": "USA",
		"region": "United States of America",
		"lat": 46.82791,
		"lng": -100.792981
	},
	{
		"title": "Georgia (Governor's Office of Student Achievement)",
		"url": "https://schoolgrades.georgia.gov",
		"city": "",
		"country": "USA",
		"region": "United States of America",
		"lat": 33.779339,
		"lng": -84.399935
	},
	{
		"title": "Massachusetts",
		"url": "https://docs.digital.mass.gov/",
		"city": "Louisville",
		"country": "USA",
		"region": "United States of America",
		"lat": 42.373253,
		"lng": -71.079698
	},
	{
		"title": "Louisville, KY",
		"url": "https://data.louisvilleky.gov",
		"city": "Louisville",
		"country": "USA",
		"region": "United States of America",
		"lat": 38.254196,
		"lng": -85.760337
	},
	{
		"title": "OpenOakland",
		"url": "http://data.openoakland.org",
		"city": "Oakland",
		"country": "USA",
		"region": "United States of America",
		"lat": 37.805344,
		"lng": -122.272286
	},
	{
		"title": "Department of Conservation, Missouri",
		"url": "https://research.mdc.mo.gov/",
		"city": "",
		"country": "USA",
		"region": "United States of America",
		"lat": 38.326306,
		"lng": -92.603773
	},
	{
		"title": "Tirana, Albania",
		"url": "https://opendata.tirana.al/",
		"city": "Tirana",
		"country": "Albania",
		"region": "Europe",
		"lat": 41.327754,
		"lng": 19.819196
	},
	{
		"title": "City of Cambridgeshire",
		"url": "http://opendata.cambridgeshireinsight.org.uk",
		"city": "Cambridgeshire",
		"country": "UK",
		"region": "Europe",
		"lat": 52.213009,
		"lng": 0.112802
	},
	{
		"title": "Marine Scotland",
		"url": "https://data.marine.gov.scot",
		"city": "",
		"country": "Scotland",
		"region": "Europe",
		"lat": 56.4907,
		"lng": 4.2026
	},
	{
		"title": "Detail Data Northern Ireland",
		"url": "http://data.nicva.org",
		"city": "",
		"country": "Northern Ireland",
		"region": "Europe",
		"lat": 54.599072,
		"lng": -5.829319
	},
	{
		"title": "NPTDAT (Leibniz Institute for Plasma Science and Technology)",
		"url": "https://www.inptdat.de/",
		"city": "",
		"country": "Germany",
		"region": "Europe",
		"lat": 54.08619,
		"lng": 13.395809
	},
	{
		"title": "City of Bonn",
		"url": "http://opendata.bonn.de",
		"city": "Bonn",
		"country": "Germany",
		"region": "Europe",
		"lat": 50.737103,
		"lng": 7.09447
	}
]